objectid,unidade_id,cnes,r_social,nome_fanta,logradouro,numero,num,complement,cod_cep,telefone,fax,e_mail,tp_class,datasus,tp_und_sap,x,y,cod_bairro,flg_ativo,cd_gestao,cd_tp_unidade,globalid,lon,lat
109,3304552296594,2296594,Ufrj Instituto de Ginecologia,Ufrj Instituto de Ginecologia,Rua Moncorvo Filho,90,90, ,20211340,(21)22322970,(21)22521379,gabinete@gineco.ufrj.br,SADT,http://cnes.datasus.gov.br/Lista_Es_Nome.asp?Vcodigo=2296594,,685567.55452651,7465461.483344221,5.0,1,2,9.0,{29237F57-0F06-45D7-A516-56F9FDFBD4AD},-43.192091359720635,-22.909409587419102
110,3304552269880,2269880,Ms Hgb Hospital Geral de Bonsucesso,Ms Hospital Geral de Bonsucesso,Avn Londres,616,616,PREDIO 4 5ª ANDAR DG,21041030,(21)39779502,(21)39779884,acs@hgb.rj.saude.gov.br,SADT,http://cnes.datasus.gov.br/Lista_Es_Nome.asp?Vcodigo=2269880,,679712.23333705,7470244.786676681,40.0,1,2,10.0,{2AB99DC5-56F4-487A-84EA-88D2C51B1AD3},-43.248923406332345,-22.866565757967383
111, ,2271303,SEAP CGSP RJ AMB. PENITENCIARIA DR SERRANO NEVES A, ,ESTRADA GENERAL EMILIO MAURELL FILHO,S/N, , , , , , , , , ,,,,1,1,,{B30FBA59-5D2D-41EB-A71B-C83143F4AA77},-43.483502117162914,-22.84245748226104
112,3304552295415,2295415,Hospital Universitario Gaffree e Guinle,Hospital Universitario Gaffree e Guinle,Rua Mariz e Barros,775,775, ,20270004,(21)22645317,(21)22645366,hugg@unirio.br,SADT,http://cnes.datasus.gov.br/Lista_Es_Nome.asp?Vcodigo=2295415,,682614.69001176,7464734.02999954,33.0,1,2,10.0,{151DF989-985D-4192-8A51-3E6F3630BFED},-43.22115379109593,-22.91603660052786
113,3304553796302,3796302,Instituto de Biologia do Exercito,Instituto de Biologia do Exercito - Ibex,Rua Francisco Manuel,102,102, ,20911270,3890-2135,3890-2135 RAMAL 200,gabdir.ibex@gmail.com,SADT,http://cnes.datasus.gov.br/Lista_Es_Nome.asp?Vcodigo=3796302,,680348.69999365,7467153.2850098,12.0,1,2,19.0,{E622F414-C09F-4413-ABE1-F561D5E85692},-43.24156594894577,-22.893727134977976
114,3304555955645,5955645,Sesdec Rj Upa 24h Bangu,Sesdec Rj Upa 24h Bangu,Rua Figueiredo Camargo,S/N,S/N, ,21870210,24195816,2124195657,upa4_bangu@saude.rj.gov.br,SADT,http://cnes.datasus.gov.br/Lista_Es_Nome.asp?Vcodigo=5955645,,658037.1332848701,7469678.62370015,141.0,1,1,15.0,{E8BBC588-285A-4D94-A804-170C4DD609D1},-43.45978984080329,-22.871369384615623
115,3304556811000,6811000,Ministerio Publico Da Uniao,Procuradoria Da Rep No Est Rio de Janeiro Clinica Medica,Avn Nilo Pecanha,31,31,SALAS 401 A 404,20020100,39719432, ,setorsaude@prrj.mpf.gov.br,SADT,http://cnes.datasus.gov.br/Lista_Es_Nome.asp?Vcodigo=6811000,,687073.2087679099,7465795.20273653,5.0,1,2,8.0,{619FC140-D60C-44C3-8C3B-5F96828C8E09},-43.1748218222348,-22.906712770745543
116,3304555955629,5955629,Sesdec Rj Upa 24h Iraja,Sesdec Rj Upa 24h Iraja,Avn Monsenhor Felix,380,380, ,21235110,24816010,24816174,upa2_iraja@saude.rj.gov.br,SADT,http://cnes.datasus.gov.br/Lista_Es_Nome.asp?Vcodigo=5955629,,671792.03169768,7472112.33451842,76.0,1,1,15.0,{71C49966-E26E-49A2-B348-12832CA12192},-43.32528745604555,-22.84953596721259
117, ,4046382,UNIVERSIDADE DO ESTADO DO RIO DE JANEIRO, ,AV. MARECHAL RONDON,381, , , , , , , , , ,,,,1,1,,{61FFAC8E-ACBF-4AB5-BC98-E41DD102B9B0},-43.24420796944441,-22.905777274231074
118,3304555955661,5955661,Sesdec Rj Upa 24 H Tijuca,Sesdec Rj Upa 24h Tijuca,Rua Conde de Bonfim,S/N,S/N, ,20520054,25658388, ,upa7_tijuca@saude .rj.gov.br,SADT,http://cnes.datasus.gov.br/Lista_Es_Nome.asp?Vcodigo=5955661,,681576.1832267899,7464017.59505488,33.0,1,1,15.0,{1FEC426A-F671-4E6E-B0FB-6E87229D5865},-43.23059145235264,-22.922974968660895
119,3304552280132,2280132,Ms Inc Instituto Nacional de Cardiologia,Ms Inc Instituto Nacional de Cardiologia,Rua das Laranjeiras,374,374,2 ANDAR,22240006,(21)25560815,(21)25560815, ,SADT,http://cnes.datasus.gov.br/Lista_Es_Nome.asp?Vcodigo=2280132,,685593.97500653,7462280.028333261,17.0,1,2,9.0,{E6ED770C-F9C5-4201-A4C2-31D88AA7118E},-43.190346552758534,-22.936746100738777
120, ,2270730,SEAP CGSP RJ HOSP PENAL FABIO SOARES MACIEL, ,ESTRADA GENERAL EMILIO MAURELL FILHO,1100, , , , , , , , , ,,,,1,1,,{D0B9408A-D488-44E6-BD9F-120CA6FFDFAA},-43.483502117162914,-22.84245748226104
121, ,2270722,SEAP CGSP RJ HOSP DE CUST E TRAT PSIQUIAT HEITOR CARRILHO, ,RUA FREI CANECA,401, , , , , , , , , ,,,,1,1,,{21AC66A1-0F96-42AC-BB95-A9F1CE3B33CC},-43.20007172292804,-22.914823561935677
122,3304556407412,6407412,Centro de Estudos de Saude do Trabalhador e Ecologia Humana,Centro de Estudos de Saude do Trabalhador e Ecologia Humana,Rua Leopoldo Bulhoes,1480,1480,PREDIO 1 DE MAIO,21041210,2598-2681,2270-3219,cestehc@ensp.fiocruz.br,SADT,http://cnes.datasus.gov.br/Lista_Es_Nome.asp?Vcodigo=6407412,,679485.03999284,7468893.25998742,39.0,1,2,7.0,{82F3A063-FA6B-44BE-B8F2-8EE3F9EF168F},-43.250698078188044,-22.87823156212465
123,3304552270803,2270803,Fund Francisco Arduino Iede Inst Est Diabet e Endocrinologia,Sesdec Inst de De Diabetes e Endocrinol Iede,Rua Moncorvo Filho,90,90, ,20211340,(21) 23327154,(21) 23327153,diretor.iede@saude.rj.gov.br,SADT,http://cnes.datasus.gov.br/Lista_Es_Nome.asp?Vcodigo=2270803,,685567.55452651,7465461.483344221,5.0,1,1,9.0,{0B749BD5-5BA8-4C62-969A-70659F70E275},-43.192091359720635,-22.909409587419102
124, ,3069699,SEAP CGSP RJ AMB INST PENAL OSCAR STEVENSON, ,RUA CELIO NASCIMENTO,1, , , , , , , , , ,,,,1,1,,{8380F3FE-BDFD-4726-B312-13446898861B},-43.23624874584866,-22.889088210346955
125, ,2271362,SEAP CGSP RJ AMB. PENITENCIARIA ALFREDO TRANJAN, ,ESTRADA GENERAL EMILIO MAURELL FILHO,S/N, , , , , , , , , ,,,,1,1,,{E3F60A30-AF7F-4230-920C-06D9181E841C},-43.483502117162914,-22.84245748226104
126,3304556038883,6038883,Sesdec Rj Upa 24h Realengo,Sesdec Rj Upa 24h Realengo,Rua Marechal Joaquim Inacio,S/N,S/N, ,21735320,24019382, ,upa19_realengo@saude.rj.gov.br,SADT,http://cnes.datasus.gov.br/Lista_Es_Nome.asp?Vcodigo=6038883,,661028.90608765,7469571.41973205,139.0,1,1,15.0,{45B44030-3153-4849-A034-1FA833F1CBB4},-43.43071809344597,-22.87441249180422
127, ,2270196,SEAP CGSP RJ SANATORIO PENAL, ,EST GUANDU DO SENA,1902, , , , , , , , , ,,,,1,1,,{F9F30E96-D69D-4695-BFC1-1A609B7FA09E},-43.48663545879942,-22.849120370086585
128, ,6858317,SES RJ UPA 24H COPACABANA, ,RUA SIQUEIRA CAMPOS,129, , , , , , , , , ,,,,1,1,,{F8CB33A6-E665-4292-BB02-8AE858D7BBCD},-43.18710701052045,-22.967078277069728
129,3304552298724,2298724,Sesdec Rj Hospital Estadual Anchieta,Sesdec Rj Hospital Estadual Anchieta,Rua Carlos Seidl,785,785, ,20931002,(21)23324567,(021)23324562,hosp.anchieta@yahoo.com.br,SADT,http://cnes.datasus.gov.br/Lista_Es_Nome.asp?Vcodigo=2298724,,682499.77001165,7469156.39333166,4.0,1,1,13.0,{55134976-92D2-484B-B489-6969BEBB095E},-43.222250919885695,-22.87594550366407
130, ,2270161,SEAP CGSP RJ HOSP DR HAMILTON AGOSTINHO VIEIRA CASTRO, ,ESTRADA GENERAL EMILIO MAURELL FILHO,1100, , , , , , , , , ,,,,1,1,,{4F0A8270-A54E-41D7-A7C5-B59DF5267C89},-43.483502117162914,-22.84245748226104
131, ,2269473,SEAP CGSP RJ AMB PRESIDIO ARY FRANCO, ,RUA VIOLETA,15, , , , , , , , , ,,,,1,1,,{1EE6AA0F-2972-4003-9C07-BB0421444D8D},-43.30984361899323,-22.90597078145819
132, ,2271400,SEDHSP DEGASE AMB ESC SANTO EXPEDITO, ,EST GUANDU DO SENA,1902, , , , , , , , , ,,,,1,1,,{CF2E549B-A329-4B05-96BC-1E3866EC2060},-43.48663545879942,-22.849120370086585
133,3304552273659,2273659,Ms Hospital Federal Da Lagoa,Ms Hospital Federal Da Lagoa,Rua Jardim Botanico,501,501, ,22470050,31115104,31115105,dirhgl@nerj.rj.saude.gov.br,SADT,http://cnes.datasus.gov.br/Lista_Es_Nome.asp?Vcodigo=2273659,,682991.6133401099,7459595.79834676,,1,2,10.0,{D37EC9BA-A3F8-4CE1-B9E5-B1806BD242CF},-43.21461975992799,-22.961928774804857
134, ,2271419,SEDHSP DEGASE AMB INST PADRE SEVERINO, ,EST DOS MARACAJAS,S/N, , , , , , , , , ,,,,1,1,,{81F478DB-1DD2-4566-85C0-B2CC7C584811},-43.22669392637428,-22.815571631829474
135,3304552296616,2296616,Ufrj Inst de Puer Ped Martagao Gesteira,Ufrj Inst de Puer Ped Martagao Gesteira,Rua Bruno Lobo,50,50,ILHA DO FUNDAO,21941612,(21)25626148,(21)25904640,direcao@ippmg.ufrj.br,SADT,http://cnes.datasus.gov.br/Lista_Es_Nome.asp?Vcodigo=2296616,,682266.21586743,7470698.1712531,,1,2,9.0,{51E7B341-2426-46B2-A7FD-DDA50645BEE3},-43.23892790307987,-22.841230230289376
136, ,2270145,SEAP CGSP RJ AMB. PENITENCIARIA ESMERALDINO BANDEIRA, ,ESTRADA GENERAL EMILIO MAURELL FILHO,400, , , , , , , , , ,,,,1,1,,{9B4548B5-BA19-4E6B-AD8E-343799782814},-43.483502117162914,-22.84245748226104
137,3304552708353,2708353,Fiotec Instituto Fernandes Figueira,Fiotec Iff Instituto Fernandes Figueira,Avn Rui Barbosa,716,716, ,22250020,(21)25536730,(21)25536730,direcao@iff.fiocruz.br,SADT,http://cnes.datasus.gov.br/Lista_Es_Nome.asp?Vcodigo=2708353,,687257.22000008,7461744.74001276,15.0,1,2,9.0,{59601ABB-A450-4559-BA79-37382BE7275F},-43.17419076346963,-22.94235190423725
138, ,5511690,SEAP CGSP RJ AMB PENITENCIARIA GABRIEL CASTILHO, ,ESTRADA GENERAL EMILIO MAURELL FILHO,S/N, , , , , , , , , ,,,,1,1,,{A68B0AAE-8347-4470-A8A7-37FFCB386588},-43.483502117162914,-22.84245748226104
139,3304552273438,2273438,Ssp Hospital Central Da Policia Militar - Hcpm,Ssp Hospital Central Da Policia Militar - Hcpm,Rua Estacio de Sa,20,20, ,20211270,23337656, ,hcpmfaturamento@ig.com.br,SADT,http://cnes.datasus.gov.br/Lista_Es_Nome.asp?Vcodigo=2273438,,684199.03033323,7465162.66478394,,1,1,,{F150D45E-0DB9-4CBB-BBE0-60EBD57D865F},-43.203812590002826,-22.91342214203707
140, ,3069796,SEAP CGSP RJ AMB. CASA DE CUSTODIA ELIZABETH SA REGO, ,ESTRADA GENERAL EMILIO MAURELL FILHO,1905, , , , , , , , , ,,,,1,1,,{273B64B3-7E57-4A9D-882F-8351D8FC83CD},-43.483502117162914,-22.84245748226104
141, ,6996892,SEAP CGSP PRESIDIO BANDEIRA STAMPA, ,ESTRADA GENERAL EMILIO MAUREL FILHO,S/N, , , , , , , , , ,,,,1,1,,{142E43DC-65B2-4162-A79E-5C7FEB1D9C4C},-43.483502117162914,-22.84245748226104
142,3304552270234,2270234,Sesdec Rj Hospital Estadual Getulio Vargas,Sesdec Rj Hospital Estadual Getulio Vargas,Avn Lobo Junior,2293,2293, ,21070061,(21) 2334-7835,(21) 2334-7843,hegvgabinete@hotmail.com,SADT,http://cnes.datasus.gov.br/Lista_Es_Nome.asp?Vcodigo=2270234,,676072.98120566,7473272.3472235,44.0,1,1,10.0,{FAB39D0A-696D-44ED-BEA7-0AD605B75CB8},-43.28555493598613,-22.8387389074443
143, ,5511607,SEAP CGSP RJ AMB INSTITUTO PENAL BENJAMIM DE MORAES, ,ESTRADA GENERAL EMILIO MAURELL FILHO,S/N, , , , , , , , , ,,,,1,1,,{FB6E8DB0-3770-4924-88DC-9E45B81BC00D},-43.483502117162914,-22.84245748226104
144, ,3069680,SEAP CGSP RJ AMB PENITENCIARIA PEDROLINO WERLING OLIVEIRA, ,RUA GENERAL EMILIO MAURELL FILHO,77, , , , , , , , , ,,,,1,1,,{D0DD6669-9976-437E-A4F2-37816B16AF61},-43.483502117162914,-22.84245748226104
145,3304555456967,5456932,FIOCRUZ/ENSP/CENTRO DE SAUDE ESCOLA GERMANO SINVAL FARIA, ,RUA LEOPOLDO BULHOES,1480,1480,TERREO,21041210,(21)25982764,(21)25620766,,AMBULATORIAL,http://cnes.datasus.gov.br/Lista_Es_Nome.asp?Vcodigo=5456932,C,,,39.0,1,2,,{E9DC0C39-FC37-4969-8A22-A5A6CBC29794},-43.25053787735113,-22.87799276089066
146,3304555136962,5136962,Sesdec Rj Centro de Trat. de Anomalias Craniofaciais Reviva,Sesdec C T de Anom Craniofaciais Reviva,Avn Padre Leonel Franca,248,248,TERREO,22451000,2122995903,2122995908,reviva@saude.rj.gov.br,SADT,http://cnes.datasus.gov.br/Lista_Es_Nome.asp?Vcodigo=5136962,,681441.85189866,7457870.104969149,29.0,1,1,7.0,{C795607B-C658-4DD3-ABF6-404D033E8E06},-43.230155498306594,-22.979176553887108
147, ,6918417,SECRETARIA DE ESTADO DE SAUDE DO RIO DE JANEIRO, ,AVENIDA PRESIDENTE VARGAS,1733, , , , , , , , , ,,,,1,1,,{48C5C963-D678-493B-BD51-C4EE5EA5A4F9},-43.19161221720053,-22.905759730719378
148, ,2269597,CBMERJ POLICLINICA ODONTOLOGICA DE CAMPO GRANDE, ,AV CESARIO DE MELO,3226, , , , , , , , , ,,,,1,1,,{1BC78AA5-C6AF-4F40-B710-4932484DE9A3},-43.563324124275674,-22.907498190390374
149,3304556582850,6582850,Incqs - Sala de Amostras,Incqs - Sala de Amostras,Avn Brasil - Incqs,4365,4365,INCQS,21040360, , , ,AMBULATORIAL,http://cnes.datasus.gov.br/Lista_Es_Nome.asp?Vcodigo=6582850,,680403.5797057,7469217.90661172,39.0,1,2,19.0,{697BB36F-7CD5-4CD3-9ECF-0C2CCC81FC24},-43.245335655761956,-22.878616242281872
150,3304556038913,6038913,Sesdec Rj Upa 24h Penha,Sesdec Rj Upa 24h Penha,Avn Lobo Junior,S/N,S/N,PARQUE ARY BARROSO,21070061,25644641, ,upa17_penha@saude.rj.gov.br,SADT,http://cnes.datasus.gov.br/Lista_Es_Nome.asp?Vcodigo=6038913,,676072.98120566,7473272.3472235,43.0,1,1,15.0,{1849E705-A697-4FBA-9884-FD15AF3CEF63},-43.28587811807679,-22.8384095259308
151,3304552273470,2273470,Ms Inca Lab de Imunogenetica Instituto Nacional de Cancer,Ms Inca Lab de Imunogenetica,Rua Sacadura Cabral,178,178,ANEXO 4,20221161,2506-6698,(21)25092121,rabreu@inca.org.br,SADT,http://cnes.datasus.gov.br/Lista_Es_Nome.asp?Vcodigo=2273470,,685978.47500689,7466839.33998551,5.0,1,2,19.0,{BCC1D050-C513-4038-B196-0AFA0C4CF94D},-43.18837683152426,-22.89639364686541
152, ,6996914,SEAP CGSP RJ, ,ESTRADA GENERAL EMILIO MAUREL FILHO,S/N, , , , , , , , , ,,,,1,1,,{93A6F443-8774-4BC8-B5F2-2567F06E871E},-43.483502117162914,-22.84245748226104
153, ,2296578,CBMERJ CENTRO MEDICO SAO JOAO DE DEUS, ,RUA DOMINGOS LOPES,336, , , , , , , , , ,,,,1,1,,{B9865700-61DA-4CE2-B55F-6271474FE410},-43.340817134010145,-22.879814308913783
154,3304552280167,2280167,Hospital Universitario Clementino Fraga Filho,Hospital Universitario Clementino Fraga Filho,Rua Professor Rodolpho Paulo Rocco,255,255,CIDADE UNIVERSITARIA,21941590,(21)25622688,(21)22702193,diretor@hucff.ufrj.br,INTERNACAO,http://cnes.datasus.gov.br/Lista_Es_Nome.asp?Vcodigo=2280167,,680968.65535422,7472899.10792715,,1,2,10.0,{4BC107FD-9949-4F86-A9CE-2338531CF00F},-43.237844943981145,-22.842616670180444
155,3304552698846,2698846,Ufrj Inst Psiq Capsi Ipub Carim,Ufrj Inst Psiq Capsi Ipub Carim,Avn Venceslau Bras,71,71,FUNDOS,22290140,(21)3873-5530,(21)2543-3101,gabdiretor@gmail.com,AMBULATORIAL,http://cnes.datasus.gov.br/Lista_Es_Nome.asp?Vcodigo=2698846,,687112.5749759501,7460610.4524277,20.0,1,2,4.0,{7D5062AC-6F66-45C7-B49B-FE051040C7AD},-43.17775131738427,-22.954872177964525
156,3304556037526,6037526,Sesdec Rj Upa 24h Jacarepagua,Sesdec Rj Upa 24h Jacarepagua,Rua Andre Rocha,20,20, ,22730522,24249311, ,UPA16_JACAREPAGUA@SAUDE.RJ.GOV,SADT,http://cnes.datasus.gov.br/Lista_Es_Nome.asp?Vcodigo=6037526,,667234.80558143,7464205.61972705,122.0,1,1,15.0,{EE5B02C0-132E-48D5-8ED6-33F19AAC5B93},-43.36545569274517,-22.919083537419308
157,3304555501407,5501407,Instituto Benjamin Constant,Instituto Benjamin Constant,Avn Pasteur,350/368,350/368, ,22290240,34784426,34784426,dpmo@ibc.gov.br,SADT,http://cnes.datasus.gov.br/Lista_Es_Nome.asp?Vcodigo=5501407,,687112.5749759501,7460610.4524277,22.0,1,2,7.0,{C02FB25D-33B5-4BC0-8212-B2E2F30C7B7A},-43.17248189130148,-22.953323457671495
158, ,3069729,SEAP CGSP RJ CASA DE CUSTODIA PAULO ROBERTO ROCHA, ,ESTRADA GENERAL EMILIO MAURELL FILHO,S/N, , , , , , , , , ,,,,1,1,,{8A1C3A48-9628-49A5-859B-297D73934D9E},-43.483502117162914,-22.84245748226104
159,3304555955211,5955211,Sesdec Rj Upa 24h Mare,Sesdec Rj Upa 24h Mare,R. Nove,4880,4880,Vila do João,21040361,31047003, ,upa1mare@saude.rj.gov.br,SADT,http://cnes.datasus.gov.br/Lista_Es_Nome.asp?Vcodigo=5955211,,680219.38847352,7469815.475668279,39.0,1,1,15.0,{20292A31-1A9B-49CF-AD96-EF194AE9819B},-43.24367878452406,-22.870167135164476
160, ,2270773,SEAP CGSP RJ AMB PEN MILTON DIAS MOREIRA, ,RUA FREI CANECA,457, , , , , , , , , ,,,,1,1,,{7FD701E2-96E0-4599-8208-DAC956172B39},-43.20107253264914,-22.91361021671789
161,3304552273365,2273365,Sesdec Rj Inst de Infectologia S Sebastiao,Sesdec Inst de Infectologia S Sebastiao,Avn Henrique Valadares,107,107, ,20070006,2509-5971/2232-9236, ,direcao.ieiss saude.rj.gov.br,INTERNACAO,http://cnes.datasus.gov.br/Lista_Es_Nome.asp?Vcodigo=2273365,,685637.5312305699,7465029.85617582,5.0,1,1,10.0,{8580031B-5AEF-4D17-8A46-39040AADE28F},-43.18945675461814,-22.91250075250941
162, ,2270129,SEAP CGSP RJ AMB. INSTITUTO PENAL PLACIDO SA CARVALHO, ,ESTRADA GENERAL EMILIO MAURELL FILHO,900, , , , , , , , , ,,,,1,1,,{9110D323-717D-4A03-B3C0-C39335608DC1},-43.483502117162914,-22.84245748226104
163, ,2273527,GRUPAMENTO MARITIMO CENTRO DE RECUPERACAO DE AFOGADOS, ,AVENIDA REPORTER NESTOR MOREIRA,11, , , , , , , , , ,,,,1,1,,{2385454A-87A2-451B-8444-D5471D7FA698},-43.180436257630525,-22.94863870694481
164,3304552295423,2295423,Ms Hospital Federal Cardoso Fontes,Ms Hospital Federal Cardoso Fontes,Avn Menezes Cortes,3245,3245, ,22745130,(21)33921772,(21)24250787,hospitalcardosofontes@hotmail.com,SADT,http://cnes.datasus.gov.br/Lista_Es_Nome.asp?Vcodigo=2295423,,672792.63656261,7463800.24391868,,1,2,10.0,{E936A9F9-AF02-4C14-AA4F-8AC257CF38EC},-43.3154493867141,-22.925364039400076
165,3304552273284,2273284,Ms Inca Sitec Instituto Nacional de Cancer,Ms Inca Sitec Serv Citopatologia,Rua Cordeiro Da Graca,156,156, ,20230130,(21)25106366 OU 6370,(21)25106379,lzardo@inca.gov.br,SADT,http://cnes.datasus.gov.br/Lista_Es_Nome.asp?Vcodigo=2273284,,683991.99250904,7466541.70500923,3.0,1,2,19.0,{50E5EA3B-5B75-4F83-B03B-98DB7821F907},-43.20585505715122,-22.898689280675555
166,3304552273209,2273209,Sesdec Rj Hospital Estadual Santa Maria,Sesdec Hospital Santa Maria,Etr do Rio Pequeno,656,656,TAQUARA,22723190,(21)24464455,(21)24464352,hesantamaria@bol.com.br,SADT,http://cnes.datasus.gov.br/Lista_Es_Nome.asp?Vcodigo=2273209,,662079.5242646299,7465098.71137588,115.0,1,1,9.0,{3FE4CB65-465E-41C9-A881-AE83DD58E7A5},-43.419334774654935,-22.9136759125713
167,3304552269384,2269384,Ms Hospital do Andarai,Hospital do Andarai,Rua Leopoldo,280,280, ,20541170,(21) 25757000, , ,SADT,http://cnes.datasus.gov.br/Lista_Es_Nome.asp?Vcodigo=2269384,,679305.21999267,7463371.02500628,,1,2,10.0,{EC5751AC-3EE4-4408-A917-E90FCBE20D0B},-43.251983946355224,-22.927791387422605
168,3304552270617,2270617,Sesdec Rj Ieds Instituto Estadual de Dermatologia Sanitaria,Sesdec Hospital de Dermatologia Sanitaria,Rua Godofredo Viana,64,64, ,22730020,021 2333-6676,021 2333-6677,IEDS@SAUDE.RJ.GOV.BR,SADT,http://cnes.datasus.gov.br/Lista_Es_Nome.asp?Vcodigo=2270617,,667784.04999794,7465121.0800159,,1,1,10.0,{FC61489A-6D08-4069-A2C0-8EAEA6CAA998},-43.364407347904375,-22.913935335109507
169,3304552270412,2270412,Sesdec Rj Pam Cavalcanti,Sesdec Rj Pam Cavalcanti,Rua Graca Melo,640,640,TERREO,21381300,(21)23324259,(21)23324258,pam.cavalcanti@saude.rj.gov.br,SADT,http://cnes.datasus.gov.br/Lista_Es_Nome.asp?Vcodigo=2270412,,673220.55640301,7469585.73730006,,1,1,13.0,{ED3E131C-002B-4331-A2AA-790C6E327069},-43.312691718056925,-22.872913579352584
170,3304552269775,2269775,Ms Hospital de Ipanema,Ms Hospital de Ipanema,Rua Antonio Parreiras,67,67, ,22411020,(21)31112303,(21)31112304,hospitaldeipanema@hgi.rj.saude.gov.br,SADT,http://cnes.datasus.gov.br/Lista_Es_Nome.asp?Vcodigo=2269775,,684989.9154539701,7457219.192616549,25.0,1,2,10.0,{B4B7F436-02C6-4AA2-9DFB-3DA0C33DA2A5},-43.19604194675781,-22.983892039309865
171, ,7031246,UERJ NUCLEO TEC CIENTIFICO TELESSAUDE BRASIL REDES DO EST RJ, ,AVENIDA VINTE E OITO DE SETEMBRO,77, , , , , , , , , ,,,,1,1,,{E89301BB-AC08-44CE-9668-4EAF2661D744},-43.23720626915903,-22.914342762816258
172, ,2271354,SEAP CGSP RJ AMB PRESIDIO NELSON HUNGRIA, ,ESTRADA GENERAL EMILIO MAURELL FILHO,S/N, , , , , , , , , ,,,,1,1,,{ECE766D4-5325-44EB-A03E-0C0509829059},-43.483502117162914,-22.84245748226104
173,3304552291304,2291304,Sesdec Rj Centro Psiquiatrico Rio de Janeiro,Sesdec Rj Centro Psiquiatrico Rio de Janeiro,Prc Cel Assuncao,S/N,S/N, ,20220480,2123325676,2123325678,cprj.rj@gmail.com,SADT,http://cnes.datasus.gov.br/Lista_Es_Nome.asp?Vcodigo=2291304,,685584.1639345201,7467000.87918566,,1,1,9.0,{7460461D-2F97-422E-9447-23F3B40D6892},-43.19107322489031,-22.8948187509965
174,3304556037550,6037550,Sesdec Rj Upa 24h Ilha do Governador,Sesdec Rj Upa 24h Ilha do Governador,Parque Poeta Manuel Bandeira,S/N,S/N, ,21910296,24672473, ,UPA14_ILHA@SAUDE.RJ.GOV.BR,SADT,http://cnes.datasus.gov.br/Lista_Es_Nome.asp?Vcodigo=6037550,,686829.76284768,7476875.79602685,,1,1,15.0,{54D1E132-25B6-427E-AD15-51B5790D5DFF},-43.18088673668859,-22.80377269063794
175, ,2269449,CORPO DE BOMBEIROS MILITAR DO ESTADO DO RIO DE JANEIRO, ,PRACA SAO SALVADOR,04, , , , , , , , , ,,,,1,1,,{13881FC3-5634-4E4C-8DF5-5CE6A8D5E47A},-43.179845815497735,-22.933726901599112
176, ,2270188,SEAP CGSP RJ CENTRO TRAT EM DEPEND QUIMICA ROBERTO MEDEIROS, ,ESTRADA GENERAL EMILIO MAURELL FILHO,1100, , , , , , , , , ,,,,1,1,,{9E60E6FB-28B4-4BAF-BCAA-5FB28254A395},-43.483502117162914,-22.84245748226104
177, ,3343715,SECRETARIA DE ESTADO DE SAUDE DO RIO DE JANEIRO, ,RUA MEXICO,128, , , , , , , , , ,,,,1,1,,{70D6D359-381D-4EE7-A1CB-9842A67F0B49},-43.17520895471445,-22.908219333155575
178, ,2271338,SEAP CGSP RJ AMB. CASA DE CUSTODIA JORGE SANTANNA, ,ESTRADA GENERAL EMILIO MAURELL FILHO,1300, , , , , , , , , ,,,,1,1,,{6A374759-F7F0-4850-87C5-B0AC896C0B15},-43.483502117162914,-22.84245748226104
179,3304556220584,6220584,Sesdec Rj Upa 24h Botafogo,Sesdec Rj Upa 24h Botafogo,Rua Sao Clemente,S/N,S/N, ,22260000,22865414, ,UPA10@SAUDE.RJ.GOV.BR,SADT,http://cnes.datasus.gov.br/Lista_Es_Nome.asp?Vcodigo=6220584,,686000.14982291,7461073.29770814,20.0,1,1,15.0,{CE428CC3-D7A6-4ADC-8298-0EC7D4029AC2},-43.18458015079615,-22.949903074748114
180,3304556038891,6038891,Sesdec Rj Upa 24h Engenho Novo,Sesdec Rj Upa 24h Engenho Novo,Rua Souza Barros,70,70, ,20961150,22013793, ,upa20_eng.novo@saude.rj.gov.br,SADT,http://cnes.datasus.gov.br/Lista_Es_Nome.asp?Vcodigo=6038891,,678077.59541553,7466577.84206526,61.0,1,1,15.0,{157B209B-DE53-4039-A952-36BA3785C8E2},-43.26391768083251,-22.899410216525585
181,3304555955688,5955688,Sesdec Rj Upa 24h Ricardo de Albuquerque,Sesdec Rj Upa 24h Ricardo de Albuquerque,Etr Mal Alencastro,S/N,S/N, ,21625000,33394819, ,upa9_ricardo@saude.rj.gov.br,SADT,http://cnes.datasus.gov.br/Lista_Es_Nome.asp?Vcodigo=5955688,,664554.00753094,7473719.50767191,109.0,1,1,15.0,{AFFFAC1A-0390-4B4D-9669-4E1E5073656A},-43.39667695852011,-22.836546233763663
182,3304552766779,2766779,Secretaria de Estado de Saude e Defesa Civil,Lacen/sesdec Rj,Rua do Resende,118,118, ,20231091,23328597,23328606,dgnnutels@saude.rj.gov.br,SADT,http://cnes.datasus.gov.br/Lista_Es_Nome.asp?Vcodigo=2766779,,685917.54636683,7464771.60926358,5.0,1,1,12.0,{59C1AD7E-D4D3-43B9-BDD3-25010B9395E8},-43.18664275554083,-22.91325501197828
183, ,2271370,SEDHSP DESIPE AMB BARAO DE ITAMBI, ,RUA BARAO DE ITAMBI,60, , , , , , , , , ,,,,1,1,,{B5893014-E954-4508-AA97-78D934FDDD82},-43.1811229710578,-22.941167619450685
184,3304556037569,6037569,Sesdec Rj Upa 24h Marechal Hermes,Sesdec Rj Upa 24h Marechal Hermes,Rua Xavier Curado,S/N,S/N, ,21610330,30165844, ,UPA12_MALHERMES@SAUDE.RJ.GOV.B,SADT,http://cnes.datasus.gov.br/Lista_Es_Nome.asp?Vcodigo=6037569,,666627.69540487,7470989.27304537,90.0,1,1,15.0,{906EB1A8-5DF3-433F-8EDC-5949677D4589},-43.37564389480941,-22.86030995540845
185,3304556582788,6582788,Centro de Referencia Professor Helio Fraga / Ensp,Centro de Referencia Professor Helio Fraga / Ensp,Etr de Curicica,2000,2000, ,22780192,(21) 2448-6814, , ,SADT,http://cnes.datasus.gov.br/Lista_Es_Nome.asp?Vcodigo=6582788,,664934.16913129,7460648.09597974,119.0,1,2,7.0,{A4B1BA75-0C73-461A-AEFF-F24A2E921EFC},-43.39382813416093,-22.956184478161827
186, ,2271311,SEAP CGSP RJ AMB PENITENCIARIA JONAS LOPES DE CARVALHO B IV, ,ESTRADA GENERAL EMILIO MAURELL FILHO,S/N, , , , , , , , , ,,,,1,1,,{43AEF416-4E2C-42F5-A7B1-AB52880C484B},-43.483502117162914,-22.84245748226104
187, ,2270218,SEAP CGSP RJ AMB PENITENCIARIA TALAVERA BRUCE, ,EST GUANDU DO SENA,1902, , , , , , , , , ,,,,1,1,,{49046EAC-CC2D-494E-BF68-B1F74A560951},-43.48663545879942,-22.849120370086585
188,3304556257100,6257100,Comando Da Marinha,Unidade Integrada de Saude Mental,Rua Marechal Serejo,539,539,SUB BAIRRO PECHINCHA,22743380,33920182,33921550,secom@uism.mar.mil.br,URGENCIA,http://cnes.datasus.gov.br/Lista_Es_Nome.asp?Vcodigo=6257100,,670095.0300001,7463972.10999884,115.0,1,2,9.0,{B0C6B6AF-6487-4513-8F3A-C9DE926619A4},-43.34215908123236,-22.923870695018053
189,3304552269678,2269678,Falmed - Fundacao Medica Antonio Luiz de Medina,Sesdec Inst Est de Cardiol - Falmed,Rua Cesario Alvim,28,28, ,22261030,21277500,21277500,falmed@globo.com,SADT,http://cnes.datasus.gov.br/Lista_Es_Nome.asp?Vcodigo=2269678,,684763.58271776,7460511.08394761,,1,1,9.0,{8B824674-5CB0-416F-A014-0AFACC3D32FE},-43.19952547061196,-22.95304701685506
190,3304552269740,2269740,Sesdec Rj Pam Coelho Neto,Sesdec Rj Pam Coelho Neto,Rua Ouseley,355,355, ,21530170,(21)23338325,(21)23338322,rh.pamcneto.@gmail.com.br,SADT,http://cnes.datasus.gov.br/Lista_Es_Nome.asp?Vcodigo=2269740,,669510.86603155,7474683.15900081,110.0,1,1,6.0,{DD46055D-CFCE-405D-8417-581E5FF5657E},-43.34920166757952,-22.829008438027486
191,3304552758091,2758091,Secretaria de Estado de Saude e Defesa Civil Rio de Janeiro,Sesdec Rj Hospital Estadual Pedro Ii,Rua do Prado,325,325, ,23555010,2123337301,2123337290,joao.paulo@saude.rj.gov.br,SADT,http://cnes.datasus.gov.br/Lista_Es_Nome.asp?Vcodigo=2758091,,634698.25223913,7465503.33758426,149.0,1,1,10.0,{06728A7B-D86A-45E9-897F-36123325EECB},-43.687717979883615,-22.91278995884337
192,3304552269988,2269988,Ms Hse Hospital dos Servidores do Estado,Ms Hse Hospital dos Servidores do Estado,Rua Sacadura Cabral,178,178, ,20221161,(21)22913131,(21)25161539,direcao@hse.rj.saude.gov.br,SADT,http://cnes.datasus.gov.br/Lista_Es_Nome.asp?Vcodigo=2269988,,685978.47500689,7466839.33998551,,1,2,10.0,{66C16439-9A23-4D9E-936F-8B4D285BB973},-43.18837683152426,-22.89639364686541
193, ,2270692,CBMERJ HOSP ARISTARCHO PESSOA HOSP DO CORPO DE BOMBEIROS, ,AV. PAULO DE FRONTIN,876, , , , , , , , , ,,,,1,1,,{6EDF51ED-3AF0-44C9-8E5E-5EB6AC2A6C84},-43.20915972189598,-22.931213192994363
194, ,2270781,SEAP CGSP RJ AMB PENITENCIARIA LEMOS DE BRITO, ,ESTRADA GENERAL EMILIO MAURELL FILHO,S/N, , , , , , , , , ,,,,1,1,,{FB857689-8635-4BDC-A3E8-99578BB2CD4B},-43.483502117162914,-22.84245748226104
195,3304552270668,2270668,Ufrj Hospital Escola Sao Francisco de Assis,Ufrj Hospital Escola Sao Fco de Assis,Avn Pres Vargas,2863,2863, ,20210030,(21)2293.1042,(21)2502.2762,direcao@hesfa.ufrj.br faturamento@hesfa.ufrj.br,SADT,http://cnes.datasus.gov.br/Lista_Es_Nome.asp?Vcodigo=2270668,,684529.39638154,7465471.21464023,8.0,1,2,9.0,{5CCC606F-DC67-4F7F-9CC0-D57DF996D71D},-43.201496998350784,-22.908973459653026
196,3304552269783,2269783,Uerj Hupe Hospital Universitario Pedro Ernesto,Uerj Hospital Univ Pedro Ernesto,Blv 28 de Setembro,77,77, ,20551900,(21)2868-8472,(21)2868-8444,faturamento.hupe@uerj.br,SADT,http://cnes.datasus.gov.br/Lista_Es_Nome.asp?Vcodigo=2269783,,681052.9678663,7464936.16212773,36.0,1,1,10.0,{BA63D4AE-803A-48CC-9635-486342A1AA41},-43.23720626915903,-22.914342762816258
197, ,2271427,SEDHSP DEGASE AMB EDUC SANTOS DUMONT, ,EST DOS MARACAJAS,S/N, , , , , , , , , ,,,,1,1,,{04EB017E-A0BF-4D21-821B-0482FD27C29A},-43.22669392637428,-22.815571631829474
198, ,2270137,SEAP CGSP RJ AMB PENITENCIARIA VICENTE PIRAGIBE, ,ESTRADA GENERAL EMILIO MAURELL FILHO,1300, , , , , , , , , ,,,,1,1,,{06209701-7A0E-454A-92E3-FBC11A79416A},-43.483502117162914,-22.84245748226104
199,3304552269392,2269392,Uerj Policlinica Piquet Carneiro,Policlinica Piquet Carneiro,Avn Marechal Rondom,381,381, ,20950003,21 - 23342334,21- 23342204,ppc@uerj.br,SADT,http://cnes.datasus.gov.br/Lista_Es_Nome.asp?Vcodigo=2269392,,680210.5563775201,7465953.28635268,57.0,1,1,10.0,{469BB8BF-FD9A-4967-A928-4B812F9197DB},-43.24420796944441,-22.905777274231074
200,3304555955637,5955637,Sesdec Rj Upa 24h Santa Cruz,Sesdec Rj Upa 24h Santa Cruz,Avn Cesario de Melo,13655,13655, ,23590060,33139218,31522391,upa_santacruz@saude.rj.gov.br,SADT,http://cnes.datasus.gov.br/Lista_Es_Nome.asp?Vcodigo=5955637,,637293.0373935499,7463205.54884612,149.0,1,1,15.0,{65108BF3-CF7B-49A1-AB5A-1B60D762C597},-43.66112586423785,-22.933536214122622
201, ,4045947,SEAP CGSP RJ AMB. JOAQUIM FERREIRA DE SOUZA, ,EST GAL EMILIO MAURELL FILHO,S/N, , , , , , , , , ,,,,1,1,,{C548ED4D-880D-4796-BF22-06866C87A7C9},-43.483502117162914,-22.84245748226104
202, ,2270749,SEAP CGSP RJ AMB PRESIDIO HELIO GOMES, ,RUA FREI CANECA,535, , , , , , , , , ,,,,1,1,,{49DA01E7-1589-4486-A197-C484B594C58D},-43.20107253264914,-22.91361021671789
203, ,2271346,SEAP CGSP RJ AMB. CASA DE CUST. PEDRO MELO DA SILVA, ,ESTADA GENERAL EMILIO MAURELL FILHO,1300, , , , , , , , , ,,,,1,1,,{949277B6-5EC8-45F2-B9C7-13137148E60F},-43.483502117162914,-22.84245748226104
204,3304556038905,6038905,Sesdec Rj Upa 24h Campo Grande Ii,Sesdec Rj Upa 24h Campo Grande Ii,Avn Cesario de Melo,S/N,S/N, ,23055002,24150665, ,upa18_cgrande2@saude.rj.gov.br,SADT,http://cnes.datasus.gov.br/Lista_Es_Nome.asp?Vcodigo=6038905,,646249.31365789,7466222.82497693,144.0,1,1,15.0,{490149BF-407B-4795-B94C-5284358A9BFF},-43.57448194807136,-22.907517742055724
205,3304555955653,5955653,Sesdec Rj Upa 24h Campo Grande,Sesdec Rj Upa 24h Campo Grande,Etr do Mendanha,S/N,S/N, ,23087286,34051069,34269590,upa5_campogrande@saude.rj.gov.,SADT,http://cnes.datasus.gov.br/Lista_Es_Nome.asp?Vcodigo=5955653,,648126.20105164,7468855.63557138,144.0,1,1,15.0,{533E383E-A1B2-4C2D-AF3E-9C82E6D5535B},-43.556393433185725,-22.882067622973267
206,3304552270021,2270021,Ufrj Maternidade Escola,Ufrj Maternidade Escola,Rua das Laranjeiras,180,180, ,22240003,(21)25569265,(21)22059064,faturamento@me.ufrj.br,SADT,http://cnes.datasus.gov.br/Lista_Es_Nome.asp?Vcodigo=2270021,,686280.56268717,7462827.49370977,17.0,1,2,9.0,{D3B80C17-6865-4351-99F8-F573AE764095},-43.18515284328116,-22.932923203563774
207,3304552273276,2273276,Ms Into Instituto Nacional de Traumatologia e Ortopedia,Ms Into Instituto Nacional de Traumatologia e Ortopedia,Av. Brasil,500,500, CAJU,20231092,(21)38527772,(21)22421069,into@into.saude.gov.br,SADT,http://cnes.datasus.gov.br/Lista_Es_Nome.asp?Vcodigo=2273276,,685917.54636683,7464771.60926358,5.0,1,2,9.0,{1855BA6C-5089-4C8B-9953-1117E46F0D42},-43.21446566103551,-22.89358135455871
208, ,6996922,SEAP CGSP RJ, ,ESTRADA GENERAL EMILIO MAUREL FILHO,S/N, , , , , , , , , ,,,,1,1,,{46739C83-3B9A-4FAE-B68D-0DF5DAC65A4D},-43.483502117162914,-22.84245748226104
209,3304552708361,2708361,Ufrj Instituto de Neurologia Deolindo Couto,Ufrj Instituto de Neurologia Deolindo Couto,Avn Venceslau Bras,95,95, ,22290140,(21)22959794,(21)22959794,direcao@indc.ufrj.br,SADT,http://cnes.datasus.gov.br/Lista_Es_Nome.asp?Vcodigo=2708361,,687112.5749759501,7460610.4524277,20.0,1,2,9.0,{DB1E1184-5796-4A8F-80F4-7DDD8E65DC2E},-43.17673209850442,-22.9539986288308
210,3304552269430,2269430,Instituto de Psiquiatria Da Ufrj Ipub,Instituto de Psiquiatria Da Ufrj Ipub,Avn Venceslau Bras,71,71,FUNDOS,22290140,(21)38735507,(21)25433101,gabdiretor@ipub.ufrj.br,SADT,http://cnes.datasus.gov.br/Lista_Es_Nome.asp?Vcodigo=2269430,,687112.5749759501,7460610.4524277,20.0,1,2,9.0,{07F1551F-661D-4114-B1AD-15129CB6B1C5},-43.17775131738427,-22.954872177964525
211, ,2270757,SEAP CGSP RJ AMB PRESIDIO EVARISTO DE MORAES, ,RUA BARTOLOMEU DE GUSMAO,1100, , , , , , , , , ,,,,1,1,,{FDA0C3EC-0AEB-47C0-A67A-D9E4F29B48F9},-43.231394401640564,-22.90649143614777
212, ,2270153,SEAP CGSP RJ AMB PENITENCIARIA MONIZ SODRE, ,ESTRADA GENERAL EMILIO MAURELL FILHO,S/N, , , , , , , , , ,,,,1,1,,{C18E563E-409A-4316-976A-3189382AB036},-43.483502117162914,-22.84245748226104
213,3304555358833,5358833,Universidade Federal do Rio de Janeiro,Ufrj-instituto de Doencas do Torax,Rua Professor Rodolpho Paulo Rocco,255,255,01D58,21941913,21 2562-2887,21 2562-2887,direcao@idt.ufrj.br,SADT,http://cnes.datasus.gov.br/Lista_Es_Nome.asp?Vcodigo=5358833,,680968.65535422,7472899.10792715,,1,2,9.0,{0232E256-C2BD-453D-A572-FC61C0FA9AFD},-43.237844943981145,-22.842616670180444
214,3304552273411,2273411,Secretaria de Estado de Saude e Defesa Civil Rio de Janeiro,Sesdec Hospital Carlos Chagas,Avn General Osvaldo Cordeiro de Farias,466,466, ,21610480,(21)23321127,23321131,hecc.cnes@saude.rj.gov.br,SADT,http://cnes.datasus.gov.br/Lista_Es_Nome.asp?Vcodigo=2273411,,666797.02666902,7470446.95666087,90.0,1,1,10.0,{DAA85389-97C0-44D8-9DCC-A91D11F6605E},-43.37406341229752,-22.865572529719024
215,3304552280701,2280701,Caps Ad Centra-rio,Centro de Atencao Psicossocial de Alcool e Drogas Centrario,Rua Dona Mariana,151,151, ,22280020,(21) 2334-8109,(21) 2334-8108,,SADT,http://cnes.datasus.gov.br/Lista_Es_Nome.asp?Vcodigo=2280701,,685749.75222268,7460411.30436352,20.0,1,1,4.0,{4C5E2AB0-6B1A-4008-A22E-3008B3E3E00C},-43.18788942313511,-22.954497384162966
216, ,7325401,CAPS UERJ, ,AVENIDA MARECHAL RONDON,381, , , , , , , , , ,,,,1,1,,{B04CA0F3-B459-4CD1-97C3-7E23E8ECA8E2},-43.24420796944441,-22.905777274231074
509, ,7717024,SEAP CGSP RJ AMB PENITENCIARIA LAERCIO DA COSTA PELEGRINO,SEAP CGSP RJ AMB PENITENCIARIA LAERCIO DA COSTA PELEGRINO,ESTRADA GENERAL EMILIO MAURELL FILHO,S/N, , , , , , , , , ,,,160.0,1,1,,{DBFAC6E8-871F-4EAE-95E8-F8BC17168FA2},-43.48352396506209,-22.84151667616035
510, ,2271389,SEAP CGSP RJ AMBULATORIO DE BANGU,SEAP CGSP RJ AMBULATORIO DE BANGU,ESTRADA GENERAL EMILIO MAURELL FILHO,1100, , , , , , , , , ,,,160.0,1,1,,{D652CEC7-6335-422B-BF5A-0F1C87146516},-43.48352396506209,-22.84151667616035
511, ,7692390,SEAP CGSP RJ AMB UNIDADE MATERNO INFANTIL,SEAP CGSP RJ AMB UNIDADE MATERNO INFANTIL,ESTRADA GUANDU DO SENA,1902, , , , , , , , , ,,,160.0,1,1,,{66B0ED7D-9E38-4012-B45B-7CDD4E8674DA},-43.48719511293994,-22.848800468464468
512, ,2271397,SEAP CGSP RJ AMB FREI CANECA,SEAP CGSP RJ AMB FREI CANECA,RUA FREI CANECA,463, , , , , , , , , ,,,9.0,0,1,,{FD00B1B3-65F0-4E89-80DF-4CBD0C2408E6},-43.20124544780487,-22.913818340827287
513, ,2270765,SEAP CGSP RJ AMB PATRONATO MAGARINO TORRES,SEAP RJ AMB PATRON MAGARINO TORRES,RUA CELIO NASCIMENTO,S/N, , , , , , , , , ,,,12.0,1,1,,{4CB08D5E-38A9-4140-A9E2-15F7D23DD6B7},-43.23657676161631,-22.88937949167946
514, ,7516800,INSTITUTO ASSISTENCIA SERVIDORES ESTADO DO RIO DE JANEIRO,SES RJ HOSPITAL ESTADUAL EDUARDO RABELLO,ESTRADA DO PRE,S/N, , , , , , , , , ,,,145.0,1,1,10.0,{2FA3B65D-2140-44B9-A607-0DFAF26644D0},-43.536889102926104,-22.897682624662572
515, ,7185081,SECRETARIA DE ESTADO DE SAUDE DO RIO DE JANEIRO,SES RJ HOSPITAL ESTADUAL TRANSPLANTE CANCER E CIR INFANTIL,RUA DAS TULIPAS,209, , , , , , , , , ,,,125.0,1,1,9.0,{77A17E9C-433A-4F58-9BE6-692690C0DB0E},-43.36617018828789,-22.885213219091007
516, ,9931112,INSTITUTO ASSISTENCIA SERVIDORES ESTADO DO RIO DE JANEIRO,SES RJ IASERJ AMBULATORIO ALMIR DUTTON CAMPO GRANDE,RUA MARIO MENDES,256, , , , , , , , , ,,,145.0,1,1,,{AACE7F94-8F99-4B47-9E9D-269616A9B9F6},-43.542259835157914,-22.898622525534563
517, ,7267975,SECRETARIA DE ESTADO DE SAUDE DO RIO DE JANEIRO,SES RJ INSTITUTO ESTADUAL DO CEREBRO PAULO NIEMEYER,RUA DO REZENDE,156, , , , , , , , , ,,,5.0,1,1,,{64A51E44-0570-4631-ABEE-39A120D21664},-43.18758325756087,-22.91358225767617
518, ,6344097,HOSPITAL CENTRAL DA MARINHA,HOSPITAL CENTRAL DA MARINHA,ILHA DAS COBRAS,S/N, , , , , , , , , ,,,5.0,1,2,10.0,{927D4E79-4976-4F62-A2F4-3E1BCF8C4A4F},-43.174112205687635,-22.89622651039615
519, ,9110089,HOSPITAL GERAL DO RIO DE JANEIRO,HOSPITAL GERAL DO RIO DE JANEIRO,AV DUQUE DE CAXIAS, 1551, , , , , , , , , ,,,135.0,1,2,10.0,{2AE5A9ED-D7BE-45E6-AF0F-6112B5931E1B},-43.39667969586146,-22.863651396352836
520, ,5158036,HOSPITAL DE GUARNICAO DA VILA MILITAR,HOSPITAL DE GUARNICAO DA VILA MILITAR,AV DUQUE DE CAXIAS,1551, , , , , , , , , ,,,135.0,1,2,10.0,{FCC4B4E4-5365-42DF-A106-E0BB2CA79741},-43.39667969586146,-22.863651396352836
521, ,2269961,ARSENAL DE MARINHA DO RIO DE JANEIRO,HOSPITAL DO ARSENAL DE MARINHA RJ,PRACA BARAO DE LADARIO,S/N, ,ILHA DAS COBRAS, , , , , , , ,,,5.0,1,2,10.0,{BD0F3C3C-87F3-4A14-809F-D22E21F7E1BD},-43.174112205687635,-22.89622651039615
522, ,6043941,HOSPITAL CENTRAL DA AERONAUTICA HCA,HOSPITAL CENTRAL DA AERONAUTICA HCA,RUA BARAO DE ITAPAGIPE, 167, , , , , , , , , ,,,7.0,1,2,10.0,{B17A745C-3D1A-4088-91B8-133F02799D23},-43.21243672498842,-22.920643597393667
523, ,9242112,CENTRO MEDICO ASSISTENCIAL DA MARINHA,AMBULATORIO NAVAL DA PENHA,AV BRASIL,10946, , , , , , , , , ,,,43.0,1,2,,{F09F5596-A84C-46ED-A858-EE4DC5F508D4},-43.273327766125234,-22.826992913686354
524, ,9243259,CASA GERONTOLOGICA DE AERONAUTICA BRIGADEIRO EDUARDO GOMES,CASA GERONTOLOGICA DE AERONAUTICA BRIGADEIRO EDUARDO GOMES,MAJOR AVIADOR CARLOS BIAVATI,S/N, ,PRACA DO AVIAO, , , , , , , ,,,104.0,1,2,,{9463A16F-AF06-4C15-A9C6-5C696CE612E2},-43.215627576705806,-22.816054356908666
525, ,6993141,UNIVERSIDADE FEDERAL DO RIO DE JANEIRO,CENTRO DE VACINACAO DE ADULTOS PR4 UFRJ,AV CARLOS CHAGAS, 373, ,BLOCO L 1 ANDAR, , , , , , , ,,,105.0,1,2,,{69C0DC56-996B-46C6-A185-1B79AAFCB745},-43.23430840287996,-22.842495728277655
526, ,5158044,COMANDO DA MARINHA,HOSPITAL NAVAL MARCILIO DIAS,RUA CESAR ZAMA,185, , , , , , , , , ,,,62.0,1,2,10.0,{1B37E12D-82C8-4318-A2D6-09B8F1AF273C},-43.28332563470695,-22.91416254980374
527, ,2288338,INSTITUTO NACIONAL DE INFECTOLOGIA EVANDRO CHAGAS,INI FIOCRUZ,AV BRASIL,4365, , , , , , , , , ,,,39.0,1,2,,{A0AB1892-4FE0-4206-9ABC-AFC4A752FC9C},-43.24356611342988,-22.87942915586217
528, ,7002017,MS INCA HC IV HOSPITAL DO CANCER IV,MS INCA HOSPITAL DO CANCER IV CUIDADOS PALIATIVOS,RUA VISCONDE SANTA ISABEL,274, , , , , , , , , ,,,36.0,1,2,9.0,{58394610-928A-4C45-9872-F6D48C243CAD},-43.25852707109197,-22.916629068953192
529, ,2273462,MS INCA HCIII HOSPITAL DE CANCER III,MS INCA HOSPITAL DO CANCER III,RUA VISCONDE SANTA ISABEL,274, , , , , , , , , ,,,36.0,1,2,9.0,{A195D4A7-7863-4661-AC4D-8B232ED2170A},-43.25793545676056,-22.91657971945295
530, ,2269821,MS INCA II HOSPITAL DO CANCER II,MS INCA II HOSPITAL DO CANCER II,RUA DO EQUADOR,831, , , , , , , , , ,,,3.0,1,2,9.0,{382C448B-7E52-4D6A-8770-348DA7EB0AF7},-43.20805800166908,-22.8999125672066
531, ,9217150,COMANDO DA MARINHA,ODONTOCLINICA CENTRAL DA MARINHA,PRACA BARAO DE LADARIO,S/N, ,1 DISTRITO NAVAL, , , , , , , ,,,5.0,1,2,,{C7D62DB4-CDAB-46A0-8FF6-FB49ECD3FE0D},-43.179514089810965,-22.89639966791129
532, ,9035125,POLICLINICA MILITAR DO RIO DE JANEIRO,POLICLINICA MILITAR DO RIO DE JANEIRO,RUA MONCORVO FILHO, 34, , , , , , , , , ,,,5.0,1,2,13.0,{9DEB7927-9726-49F2-8773-24D55963D374},-43.19111623071706,-22.90773039513356
533, ,7544243,COMANDO DA MARINHA,POLICLINICA NAVAL DE CAMPO GRANDE,AVENIDA BRASIL,44878, , , , , , , , , ,,,144.0,1,2,13.0,{A2E98077-0AC3-41D7-B66D-BECD02100971},-43.583847682960176,-22.865514711964607
534, ,5380340,POLICLINICA NAVAL NOSSA SENHORA DA GLORIA,POLICLINICA NAVAL NOSSA DA GLORIA,RUA CONDE DE BONFIM,54, , , , , , , , , ,,,33.0,1,2,13.0,{5A7DD0DE-3CF8-4FF7-8364-270F92E41DB2},-43.22360332090531,-22.923433703606634
535, ,3988724,INSTITUTO ASSISTENCIA SERVIDORES ESTADO DO RIO DE JANEIRO,AMBULATORIO IASERJ MARACANA,RUA JACEGUAI,S/N, , , , , , , , , ,,,35.0,1,1,,{FBF09D45-1B08-443F-A89A-B14B4113CC11},-43.232394545303634,-22.916252662528485
536, ,7619081,SECRETARIA DE ESTADO DE SAUDE DO RIO DE JANEIRO,CENTRO DE REFERENCIA ESTADUAL EM SAUDE DO TRABALHADOR DO RJ,RUA SILVA JARDIM,31, , , , , , , , , ,,,5.0,1,1,,{E021D24E-747D-4AD7-BFE2-586632238BAB},-43.18173877569535,-22.908104282727002
537, ,2273454,MS INCA HC I HOSPITAL DO CANCER I,MS INCA HOSPITAL DO CANCER I,PRACA CRUZ VERMELHA, 23, , , , , , , , , ,,,5.0,1,2,9.0,{570C8FA4-51C9-4E5B-8FB2-56D54C2F527D},-43.188622554637206,-22.91236659268866
538, ,2295067,SECRETARIA DE ESTADO DE SAUDE SES,INSTITUTO ESTADUAL DE HEMATOLOGIA ARTHUR SIQUEIRA CAVALCANTI,RUA FREI CANECA,8, , , , , , , , , ,,,5.0,1,1,,{49490CCB-6208-4647-B380-46A72B835F3A},-43.18979373347264,-22.909068141220313
539, ,9844392,POLICLINICA DA POLICIA CIVIL JOSE DA COSTA MOREIRA,POLICLINICA DA POLICIA CIVIL,RUA HADDOCK LOBO, 60, , , , , , , , , ,,,9.0,1,1,13.0,{F1A82389-299A-4D41-9275-B7600285E088},-43.20757439856536,-22.914953967941443
540, ,9592148,SEAP CGSP RJ AMB CADEIA PUBLICA JOSE ANTONIO DA COSTA BARROS,SEAP CGSP RJ AMB CADEIA PUBLICA JOSE ANTONIO DA COSTA BARROS,ESTRADA GENERAL EMILIO MAURELL FILHO,S/N, , , , , , , , , ,,,160.0,1,1,,{357D37DB-5E22-405B-AF8F-8A44230D49E3},-43.48352396506209,-22.84151667616035
